{"meta": {"code": 200}, "data": [{"latitude": 37.780885099999999, "longitude": -122.3948632, "id": 514276, "street_address": "164 south park", "name": "Instagram"}, {"latitude": 37.780885099999999, "longitude": -122.3948632, "id": 855655, "street_address": "164 South Park", "name": "Instagram Popular"}, {"latitude": 37.781035000000003, "longitude": -122.394758, "id": 172638, "street_address": "164 S Park st", "name": "1 Block Off the Grid"}, {"latitude": 37.780710599999999, "longitude": -122.395044, "id": 544472, "street_address": "551 3rd St", "name": "Shell - South Park"}, {"latitude": 37.780777999999998, "longitude": -122.395123, "id": 81928, "street_address": "", "name": "Lionside"}, {"latitude": 37.781090273546099, "longitude": -122.39529669284821, "id": 5564, "street_address": "521 3rd Street", "name": "HRD Coffee Shop"}, {"latitude": 37.781300000000002, "longitude": -122.395, "id": 620883, "street_address": "164 South Park St.", "name": "Dipity"}, {"latitude": 37.780994877834033, "longitude": -122.3943257331848, "id": 1315, "street_address": "155A South Park", "name": "The Butler & The Chef Bistro"}, {"latitude": 37.780892999999999, "longitude": -122.394211, "id": 13389, "street_address": "155A Southpark st", "name": "The Buttler & The Chef"}, {"latitude": 37.781045300000002, "longitude": -122.3955301, "id": 91185, "street_address": "524 3rd Street", "name": "City Picture Frame"}, {"latitude": 37.780500938066929, "longitude": -122.3943203687668, "id": 26404, "street_address": "599 Third Street", "name": "Foodspotting HQ"}, {"latitude": 37.781074599999997, "longitude": -122.39556690000001, "id": 385659, "street_address": "520 3rd St", "name": "Beer Robot"}, {"latitude": 37.780899481998837, "longitude": -122.3956453800201, "id": 2485, "street_address": "520 3rd Street, Third Floor", "name": "Wired Magazine"}, {"latitude": 37.780450000000002, "longitude": -122.39425, "id": 605764, "street_address": "599 third street", "name": "Rantanplan"}, {"latitude": 37.780449999999988, "longitude": -122.39425, "id": 94183, "street_address": "599 Third Street", "name": "The Yarn Barn"}, {"latitude": 37.781145000000002, "longitude": -122.395678, "id": 945338, "street_address": "500 3rd St", "name": "CMG"}, {"latitude": 37.78156301048017, "longitude": -122.39435791969299, "id": 315279, "street_address": "108 S Park Ave", "name": "South Park Cafe"}, {"latitude": 37.781157, "longitude": -122.393885, "id": 65494, "street_address": "123 South Park St", "name": "PUBLIC Bikes"}, {"latitude": 37.781026676418414, "longitude": -122.3959028720856, "id": 1443, "street_address": "520 3rd Street, Third Floor", "name": "Wired Digital"}, {"latitude": 37.780141, "longitude": -122.394345, "id": 49217, "street_address": "599 3rd Street", "name": "599 3rd St"}]}